{"ast":null,"code":"var _jsxFileName = \"/Users/alice/www/SHERPA/src/components/gmap.js\";\nimport React from 'react';\nimport { Map, GoogleApiWrapper, Marker, InfoWindow } from 'google-maps-react';\nimport './gmap.scss';\nimport pinMapPath from '../asset/pinMap.png';\nimport police_icon from \"../asset/police_icon.svg\";\nexport class Gmap extends React.Component {\n  constructor(props) {\n    super(props);\n\n    this.displayMarkersStadium = () => {\n      return this.state.stadium.map(stadium => {\n        return React.createElement(Marker, {\n          id: stadium.name,\n          key: stadium.id,\n          position: {\n            lat: stadium.latitude,\n            lng: stadium.longitude\n          },\n          icon: {\n            url: pinMapPath\n          } //onClick={() => console.log(stadium.id)}\n          ,\n          __source: {\n            fileName: _jsxFileName,\n            lineNumber: 71\n          },\n          __self: this\n        });\n      });\n    };\n\n    this.displayInfoWindow = () => {\n      return this.state.stadium.map(stadium => {\n        return React.createElement(InfoWindow, {\n          id: stadium.name,\n          key: stadium.id,\n          position: {\n            lat: stadium.latitude,\n            lng: stadium.longitude\n          },\n          style: infoWindowStyle,\n          onClick: () => console.log('test'),\n          __source: {\n            fileName: _jsxFileName,\n            lineNumber: 100\n          },\n          __self: this\n        });\n      });\n    };\n\n    this.displayMarkersPolice = () => {\n      return this.state.police.map(police => {\n        return React.createElement(Marker, {\n          id: police.name,\n          key: police,\n          position: {\n            lat: police.latitude,\n            lng: police.longitude\n          },\n          icon: {\n            url: police_icon\n          },\n          onClick: () => console.log(police.name),\n          __source: {\n            fileName: _jsxFileName,\n            lineNumber: 117\n          },\n          __self: this\n        });\n      });\n    };\n\n    this.state = {\n      stadium: [{\n        lat: 48.8473435,\n        lng: 2.2487285,\n        name: ''\n      }, {\n        latitude: 48.9244592,\n        longitude: 2.3601645,\n        name: 'Stade de France X',\n        id: 1\n      }, {\n        latitude: 48.8556475,\n        longitude: 2.2986304,\n        name: 'Champ-de-MarsX',\n        id: 2\n      }, {\n        latitude: 48.8697988,\n        longitude: 2.3056264,\n        name: 'Champs-Elysées X',\n        id: 3\n      }, {\n        latitude: 48.858583,\n        longitude: 2.2940059,\n        name: 'Tour EiffelX ',\n        id: 4\n      }, {\n        latitude: 48.8661126,\n        longitude: 2.3102604,\n        name: 'Grand Palais',\n        id: 5\n      }, {\n        latitude: 48.8558529,\n        longitude: 2.3103745,\n        name: 'Esplanade des Invalides',\n        id: 6\n      }, {\n        latitude: 48.8414391,\n        longitude: 2.2508547,\n        name: 'Parc des Princes',\n        id: 7\n      }, {\n        latitude: 48.8329819,\n        longitude: 2.2848318,\n        name: 'Porte de Versailles',\n        id: 8\n      }, {\n        latitude: 48.8433235,\n        longitude: 2.250742,\n        name: 'Stade Jean Bouin',\n        id: 9\n      }, {\n        latitude: 48.8433305,\n        longitude: 2.2507312,\n        name: 'Roland-Garros',\n        id: 10\n      }, {\n        latitude: 48.8385414,\n        longitude: 2.3763955,\n        name: 'Accor Hotels Arena',\n        id: 11\n      }, {\n        latitude: 48.8942081,\n        longitude: 2.3910398,\n        name: 'Zénith',\n        id: 12\n      }, {\n        latitude: 48.9292806,\n        longitude: 2.245583,\n        name: 'Stade Yves-du-Manoir',\n        id: 13\n      }, {\n        latitude: 48.857275,\n        longitude: 2.6188995,\n        name: 'Base nautique',\n        id: 14\n      }, {\n        latitude: 48.7880274,\n        longitude: 2.0326554,\n        name: 'Vélodrome national',\n        id: 15\n      }, {\n        latitude: 48.8085377,\n        longitude: 2.1130433,\n        name: 'Château de Versailles',\n        id: 16\n      }, {\n        latitude: 48.8952826,\n        longitude: 2.2272789,\n        name: 'Arena 92',\n        id: 17\n      }, {\n        latitude: 48.9106561,\n        longitude: 2.3751778,\n        name: 'Centre aquatique aubervilliers',\n        id: 18\n      }, {\n        latitude: 48.7505395,\n        longitude: 2.0757523,\n        name: 'Golf National st quentin',\n        id: 19\n      }, {\n        latitude: 48.9378507,\n        longitude: 2.4199348,\n        name: 'Le Bourget',\n        id: 20\n      }, {\n        latitude: 48.8914683,\n        longitude: 2.3567057,\n        name: 'Arena 2 la chapelle',\n        id: 21\n      }, {\n        latitude: 48.7883842,\n        longitude: 1.9329509,\n        name: 'Coline d’Élancourt',\n        id: 22\n      }, {\n        latitude: 48.8350956,\n        longitude: 2.2535702,\n        name: 'Stade Pierre de Coubertin',\n        id: 23\n      }, {\n        latitude: 48.9393389,\n        longitude: 2.38176,\n        name: 'Piscine de Marville',\n        id: 24\n      }],\n      police: [{\n        latitude: 48.940873,\n        longitude: 2.3540861,\n        name: 'SaintDenis Commissariat central'\n      }, {\n        latitude: 48.8616971712805,\n        longitude: 2.311607328162924,\n        name: 'Invalide Commissariat central'\n      }, {\n        latitude: 48.86749771375845,\n        longitude: 2.311570347812089,\n        name: 'Champs Elysée Commissariat central'\n      }, {\n        latitude: 48.844289398452176,\n        longitude: 2.381594594866464,\n        name: 'Daumesnil Commissariat central'\n      }, {\n        latitude: 48.8923012,\n        longitude: 2.2056955,\n        name: 'Nanterre Commissariat central '\n      }, {\n        latitude: 48.8233737,\n        longitude: 2.270274,\n        name: 'Issy  Commissariat central'\n      }, {\n        latitude: 48.8352357,\n        longitude: 2.2408951999999998,\n        name: 'Boulbi Commissariat central '\n      }, {\n        latitude: 48.9218516,\n        longitude: 2.2586868,\n        name: 'Colombes Commissariat '\n      }, {\n        latitude: 48.9281492,\n        longitude: 2.3914016,\n        name: 'Le Bourget Commissariat '\n      }, {\n        latitude: 48.936181,\n        longitude: 2.357443,\n        name: 'SaintDenis Centre Comico'\n      }, {\n        latitude: 48.86889239901695,\n        longitude: 2.343963108027798,\n        name: ' Paris 2 comico'\n      }, {\n        latitude: 48.86714560393253,\n        longitude: 2.331378562177072,\n        name: 'PAris 1 comico'\n      }, {\n        latitude: 48.86714560393253,\n        longitude: 2.331378562177072,\n        name: ' Paris 8 comico Opéra'\n      }, {\n        latitude: 48.8826596,\n        longitude: 2.4151066,\n        name: 'Les Lilas Comico'\n      }, {\n        latitude: 48.88084426100817,\n        longitude: 2.365722535844387,\n        name: 'paris Canal de Lourq'\n      }, {\n        latitude: 48.880652,\n        longitude: 2.355151,\n        name: 'gare du nord'\n      }, {\n        latitude: 48.854501002282504,\n        longitude: 2.269214859531703,\n        name: 'Passy'\n      }, {\n        latitude: 48.8382677,\n        longitude: 2.2864206,\n        name: 'Paris 15 comico'\n      }, {\n        latitude: 48.8015674,\n        longitude: 2.1166273,\n        name: 'Versailles Comico'\n      }, {\n        latitude: 48.7854119,\n        longitude: 2.0478015,\n        name: 'Guyancourt Comico'\n      }, {\n        latitude: 48.8755393,\n        longitude: 2.3024263,\n        name: 'Paris 8  comico'\n      }, {\n        latitude: 48.8540096,\n        longitude: 2.5783171,\n        name: 'Paris EST marne lavallée Comico '\n      }, {\n        latitude: 48.9236513,\n        longitude: 2.355672,\n        name: 'aubervillier'\n      }]\n    };\n  }\n\n  render() {\n    return React.createElement(Map, {\n      className: \"gmapContainer\",\n      google: this.props.google,\n      zoom: 12,\n      style: mapStyles,\n      initialCenter: {\n        lat: 48.8583701,\n        lng: 2.2944813\n      },\n      __source: {\n        fileName: _jsxFileName,\n        lineNumber: 135\n      },\n      __self: this\n    }, this.displayMarkersStadium(), this.displayMarkersPolice(), this.displayInfoWindow());\n  }\n\n}\nexport default GoogleApiWrapper({\n  apiKey: 'AIzaSyC9t3-AiZzfZ7zOWgAChLf7-3jQ8PPPTgY'\n})(Gmap);\nconst mapStyles = {\n  width: '100%',\n  height: '100%',\n  //marginTop: '-60px',\n  zIndex: '-5',\n  overflow: 'hidden'\n};\nconst infoWindowStyle = {\n  height: '50px',\n  width: '50px',\n  backgroundColor: 'red'\n};","map":{"version":3,"sources":["/Users/alice/www/SHERPA/src/components/gmap.js"],"names":["React","Map","GoogleApiWrapper","Marker","InfoWindow","pinMapPath","Gmap","Component","constructor","props","displayMarkersStadium","state","stadium","map","name","id","lat","latitude","lng","longitude","url","displayInfoWindow","infoWindowStyle","console","log","displayMarkersPolice","police","police_icon","render","google","mapStyles","apiKey","width","height","zIndex","overflow","backgroundColor"],"mappings":";AAAA,OAAOA,KAAP,MAAkB,OAAlB;AACA,SAASC,GAAT,EAAcC,gBAAd,EAAgCC,MAAhC,EAAwCC,UAAxC,QAA0D,mBAA1D;AACA,OAAQ,aAAR;AACA,OAAOC,UAAP,MAAuB,qBAAvB;;AAIA,OAAO,MAAMC,IAAN,SAAmBN,KAAK,CAACO,SAAzB,CAAmC;AACxCC,EAAAA,WAAW,CAACC,KAAD,EAAQ;AACjB,UAAMA,KAAN;;AADiB,SA4DrBC,qBA5DqB,GA4DG,MAAM;AAC5B,aAAO,KAAKC,KAAL,CAAWC,OAAX,CAAmBC,GAAnB,CAAwBD,OAAD,IAAa;AACzC,eAAO,oBAAC,MAAD;AACP,UAAA,EAAE,EAAEA,OAAO,CAACE,IADL;AAEP,UAAA,GAAG,EAAEF,OAAO,CAACG,EAFN;AAGP,UAAA,QAAQ,EAAE;AACRC,YAAAA,GAAG,EAAEJ,OAAO,CAACK,QADL;AAERC,YAAAA,GAAG,EAAEN,OAAO,CAACO;AAFL,WAHH;AAQP,UAAA,IAAI,EAAE;AACJC,YAAAA,GAAG,EAAEf;AADD,WARC,CAYP;AAZO;AAAA;AAAA;AAAA;AAAA;AAAA;AAAA,UAAP;AAwBD,OAzBM,CAAP;AA0BD,KAvFoB;;AAAA,SAyFrBgB,iBAzFqB,GAyFD,MAAK;AACvB,aAAO,KAAKV,KAAL,CAAWC,OAAX,CAAmBC,GAAnB,CAAwBD,OAAD,IAAa;AACzC,eAAO,oBAAC,UAAD;AACP,UAAA,EAAE,EAAEA,OAAO,CAACE,IADL;AAEP,UAAA,GAAG,EAAEF,OAAO,CAACG,EAFN;AAGP,UAAA,QAAQ,EAAE;AACRC,YAAAA,GAAG,EAAEJ,OAAO,CAACK,QADL;AAERC,YAAAA,GAAG,EAAEN,OAAO,CAACO;AAFL,WAHH;AAOP,UAAA,KAAK,EAAGG,eAPD;AAQP,UAAA,OAAO,EAAE,MAAMC,OAAO,CAACC,GAAR,CAAY,MAAZ,CARR;AAAA;AAAA;AAAA;AAAA;AAAA;AAAA,UAAP;AAWD,OAZM,CAAP;AAaD,KAvGoB;;AAAA,SA0GrBC,oBA1GqB,GA0GE,MAAK;AAC1B,aAAO,KAAKd,KAAL,CAAWe,MAAX,CAAkBb,GAAlB,CAAuBa,MAAD,IAAY;AACvC,eAAO,oBAAC,MAAD;AACP,UAAA,EAAE,EAAEA,MAAM,CAACZ,IADJ;AAEP,UAAA,GAAG,EAAEY,MAFE;AAGP,UAAA,QAAQ,EAAE;AACRV,YAAAA,GAAG,EAAEU,MAAM,CAACT,QADJ;AAERC,YAAAA,GAAG,EAAEQ,MAAM,CAACP;AAFJ,WAHH;AAOP,UAAA,IAAI,EAAE;AACJC,YAAAA,GAAG,EAAEO;AADD,WAPC;AAUR,UAAA,OAAO,EAAE,MAAMJ,OAAO,CAACC,GAAR,CAAYE,MAAM,CAACZ,IAAnB,CAVP;AAAA;AAAA;AAAA;AAAA;AAAA;AAAA,UAAP;AAaD,OAdM,CAAP;AAeD,KA1HoB;;AAGjB,SAAKH,KAAL,GAAa;AAEXC,MAAAA,OAAO,EAAE,CAAC;AAACI,QAAAA,GAAG,EAAE,UAAN;AAAkBE,QAAAA,GAAG,EAAE,SAAvB;AAAkCJ,QAAAA,IAAI,EAAE;AAAxC,OAAD,EACT;AAACG,QAAAA,QAAQ,EAAE,UAAX;AAAuBE,QAAAA,SAAS,EAAE,SAAlC;AAA6CL,QAAAA,IAAI,EAAE,mBAAnD;AAAwEC,QAAAA,EAAE,EAAE;AAA5E,OADS,EAET;AAACE,QAAAA,QAAQ,EAAE,UAAX;AAAuBE,QAAAA,SAAS,EAAE,SAAlC;AAA6CL,QAAAA,IAAI,EAAE,gBAAnD;AAAqEC,QAAAA,EAAE,EAAE;AAAzE,OAFS,EAGT;AAACE,QAAAA,QAAQ,EAAE,UAAX;AAAuBE,QAAAA,SAAS,EAAE,SAAlC;AAA6CL,QAAAA,IAAI,EAAE,kBAAnD;AAAuEC,QAAAA,EAAE,EAAE;AAA3E,OAHS,EAIT;AAACE,QAAAA,QAAQ,EAAE,SAAX;AAAuBE,QAAAA,SAAS,EAAE,SAAlC;AAA6CL,QAAAA,IAAI,EAAE,eAAnD;AAAoEC,QAAAA,EAAE,EAAE;AAAxE,OAJS,EAKT;AAACE,QAAAA,QAAQ,EAAE,UAAX;AAAuBE,QAAAA,SAAS,EAAE,SAAlC;AAA6CL,QAAAA,IAAI,EAAE,cAAnD;AAAmEC,QAAAA,EAAE,EAAE;AAAvE,OALS,EAMT;AAACE,QAAAA,QAAQ,EAAE,UAAX;AAAuBE,QAAAA,SAAS,EAAE,SAAlC;AAA6CL,QAAAA,IAAI,EAAE,yBAAnD;AAA8EC,QAAAA,EAAE,EAAE;AAAlF,OANS,EAOT;AAACE,QAAAA,QAAQ,EAAE,UAAX;AAAuBE,QAAAA,SAAS,EAAE,SAAlC;AAA6CL,QAAAA,IAAI,EAAE,kBAAnD;AAAuEC,QAAAA,EAAE,EAAE;AAA3E,OAPS,EAQT;AAACE,QAAAA,QAAQ,EAAE,UAAX;AAAuBE,QAAAA,SAAS,EAAE,SAAlC;AAA6CL,QAAAA,IAAI,EAAE,qBAAnD;AAA0EC,QAAAA,EAAE,EAAE;AAA9E,OARS,EAST;AAACE,QAAAA,QAAQ,EAAE,UAAX;AAAuBE,QAAAA,SAAS,EAAE,QAAlC;AAA6CL,QAAAA,IAAI,EAAE,kBAAnD;AAAuEC,QAAAA,EAAE,EAAE;AAA3E,OATS,EAUT;AAACE,QAAAA,QAAQ,EAAE,UAAX;AAAuBE,QAAAA,SAAS,EAAE,SAAlC;AAA6CL,QAAAA,IAAI,EAAE,eAAnD;AAAoEC,QAAAA,EAAE,EAAE;AAAxE,OAVS,EAWT;AAACE,QAAAA,QAAQ,EAAE,UAAX;AAAuBE,QAAAA,SAAS,EAAE,SAAlC;AAA6CL,QAAAA,IAAI,EAAE,oBAAnD;AAAyEC,QAAAA,EAAE,EAAE;AAA7E,OAXS,EAYT;AAACE,QAAAA,QAAQ,EAAE,UAAX;AAAuBE,QAAAA,SAAS,EAAE,SAAlC;AAA6CL,QAAAA,IAAI,EAAE,QAAnD;AAA6DC,QAAAA,EAAE,EAAE;AAAjE,OAZS,EAaT;AAACE,QAAAA,QAAQ,EAAE,UAAX;AAAuBE,QAAAA,SAAS,EAAE,QAAlC;AAA6CL,QAAAA,IAAI,EAAE,sBAAnD;AAA2EC,QAAAA,EAAE,EAAE;AAA/E,OAbS,EAcT;AAACE,QAAAA,QAAQ,EAAE,SAAX;AAAuBE,QAAAA,SAAS,EAAE,SAAlC;AAA6CL,QAAAA,IAAI,EAAE,eAAnD;AAAoEC,QAAAA,EAAE,EAAE;AAAxE,OAdS,EAeT;AAACE,QAAAA,QAAQ,EAAE,UAAX;AAAuBE,QAAAA,SAAS,EAAE,SAAlC;AAA6CL,QAAAA,IAAI,EAAE,oBAAnD;AAAyEC,QAAAA,EAAE,EAAE;AAA7E,OAfS,EAgBT;AAACE,QAAAA,QAAQ,EAAE,UAAX;AAAuBE,QAAAA,SAAS,EAAE,SAAlC;AAA6CL,QAAAA,IAAI,EAAE,uBAAnD;AAA6EC,QAAAA,EAAE,EAAE;AAAjF,OAhBS,EAiBT;AAACE,QAAAA,QAAQ,EAAE,UAAX;AAAuBE,QAAAA,SAAS,EAAE,SAAlC;AAA6CL,QAAAA,IAAI,EAAE,UAAnD;AAAgEC,QAAAA,EAAE,EAAE;AAApE,OAjBS,EAkBT;AAACE,QAAAA,QAAQ,EAAE,UAAX;AAAuBE,QAAAA,SAAS,EAAE,SAAlC;AAA6CL,QAAAA,IAAI,EAAE,gCAAnD;AAAqFC,QAAAA,EAAE,EAAE;AAAzF,OAlBS,EAmBT;AAACE,QAAAA,QAAQ,EAAE,UAAX;AAAuBE,QAAAA,SAAS,EAAE,SAAlC;AAA6CL,QAAAA,IAAI,EAAE,0BAAnD;AAA+EC,QAAAA,EAAE,EAAE;AAAnF,OAnBS,EAoBT;AAACE,QAAAA,QAAQ,EAAE,UAAX;AAAuBE,QAAAA,SAAS,EAAE,SAAlC;AAA6CL,QAAAA,IAAI,EAAE,YAAnD;AAAiEC,QAAAA,EAAE,EAAE;AAArE,OApBS,EAqBT;AAACE,QAAAA,QAAQ,EAAE,UAAX;AAAuBE,QAAAA,SAAS,EAAE,SAAlC;AAA6CL,QAAAA,IAAI,EAAE,qBAAnD;AAA0EC,QAAAA,EAAE,EAAE;AAA9E,OArBS,EAsBT;AAACE,QAAAA,QAAQ,EAAE,UAAX;AAAuBE,QAAAA,SAAS,EAAE,SAAlC;AAA6CL,QAAAA,IAAI,EAAE,oBAAnD;AAA0EC,QAAAA,EAAE,EAAE;AAA9E,OAtBS,EAuBT;AAACE,QAAAA,QAAQ,EAAE,UAAX;AAAuBE,QAAAA,SAAS,EAAE,SAAlC;AAA6CL,QAAAA,IAAI,EAAE,2BAAnD;AAAgFC,QAAAA,EAAE,EAAE;AAApF,OAvBS,EAwBT;AAACE,QAAAA,QAAQ,EAAE,UAAX;AAAuBE,QAAAA,SAAS,EAAE,OAAlC;AAA6CL,QAAAA,IAAI,EAAE,qBAAnD;AAA0EC,QAAAA,EAAE,EAAE;AAA9E,OAxBS,CAFE;AA4BbW,MAAAA,MAAM,EAAE,CACN;AAACT,QAAAA,QAAQ,EAAC,SAAV;AAAqBE,QAAAA,SAAS,EAAC,SAA/B;AAA0CL,QAAAA,IAAI,EAAE;AAAhD,OADM,EAEN;AAACG,QAAAA,QAAQ,EAAC,gBAAV;AAA4BE,QAAAA,SAAS,EAAE,iBAAvC;AAA0DL,QAAAA,IAAI,EAAC;AAA/D,OAFM,EAGN;AAACG,QAAAA,QAAQ,EAAC,iBAAV;AAA4BE,QAAAA,SAAS,EAAC,iBAAtC;AAAyDL,QAAAA,IAAI,EAAC;AAA9D,OAHM,EAIN;AAACG,QAAAA,QAAQ,EAAC,kBAAV;AAA6BE,QAAAA,SAAS,EAAE,iBAAxC;AAA2DL,QAAAA,IAAI,EAAC;AAAhE,OAJM,EAKN;AAACG,QAAAA,QAAQ,EAAE,UAAX;AAAsBE,QAAAA,SAAS,EAAC,SAAhC;AAA2CL,QAAAA,IAAI,EAAE;AAAjD,OALM,EAMN;AAACG,QAAAA,QAAQ,EAAE,UAAX;AAAsBE,QAAAA,SAAS,EAAE,QAAjC;AAA2CL,QAAAA,IAAI,EAAC;AAAhD,OANM,EAON;AAACG,QAAAA,QAAQ,EAAE,UAAX;AAAsBE,QAAAA,SAAS,EAAE,kBAAjC;AAAqDL,QAAAA,IAAI,EAAC;AAA1D,OAPM,EAQN;AAACG,QAAAA,QAAQ,EAAE,UAAX;AAAuBE,QAAAA,SAAS,EAAE,SAAlC;AAA6CL,QAAAA,IAAI,EAAC;AAAlD,OARM,EASN;AAACG,QAAAA,QAAQ,EAAE,UAAX;AAAsBE,QAAAA,SAAS,EAAE,SAAjC;AAA4CL,QAAAA,IAAI,EAAC;AAAjD,OATM,EAUN;AAACG,QAAAA,QAAQ,EAAC,SAAV;AAAoBE,QAAAA,SAAS,EAAE,QAA/B;AAAyCL,QAAAA,IAAI,EAAC;AAA9C,OAVM,EAWN;AAACG,QAAAA,QAAQ,EAAE,iBAAX;AAA6BE,QAAAA,SAAS,EAAE,iBAAxC;AAA2DL,QAAAA,IAAI,EAAC;AAAhE,OAXM,EAYN;AAACG,QAAAA,QAAQ,EAAE,iBAAX;AAA6BE,QAAAA,SAAS,EAAC,iBAAvC;AAA0DL,QAAAA,IAAI,EAAC;AAA/D,OAZM,EAaN;AAACG,QAAAA,QAAQ,EAAE,iBAAX;AAA8BE,QAAAA,SAAS,EAAE,iBAAzC;AAA4DL,QAAAA,IAAI,EAAC;AAAjE,OAbM,EAcN;AAACG,QAAAA,QAAQ,EAAC,UAAV;AAAqBE,QAAAA,SAAS,EAAC,SAA/B;AAA0CL,QAAAA,IAAI,EAAC;AAA/C,OAdM,EAeN;AAACG,QAAAA,QAAQ,EAAE,iBAAX;AAA8BE,QAAAA,SAAS,EAAC,iBAAxC;AAA2DL,QAAAA,IAAI,EAAC;AAAhE,OAfM,EAgBN;AAACG,QAAAA,QAAQ,EAAE,SAAX;AAAqBE,QAAAA,SAAS,EAAC,QAA/B;AAAyCL,QAAAA,IAAI,EAAE;AAA/C,OAhBM,EAiBN;AAACG,QAAAA,QAAQ,EAAE,kBAAX;AAA8BE,QAAAA,SAAS,EAAE,iBAAzC;AAA4DL,QAAAA,IAAI,EAAE;AAAlE,OAjBM,EAkBN;AAACG,QAAAA,QAAQ,EAAE,UAAX;AAAsBE,QAAAA,SAAS,EAAE,SAAjC;AAA4CL,QAAAA,IAAI,EAAC;AAAjD,OAlBM,EAmBN;AAACG,QAAAA,QAAQ,EAAE,UAAX;AAAsBE,QAAAA,SAAS,EAAE,SAAjC;AAA4CL,QAAAA,IAAI,EAAC;AAAjD,OAnBM,EAoBN;AAACG,QAAAA,QAAQ,EAAE,UAAX;AAAsBE,QAAAA,SAAS,EAAE,SAAjC;AAA4CL,QAAAA,IAAI,EAAC;AAAjD,OApBM,EAqBN;AAACG,QAAAA,QAAQ,EAAE,UAAX;AAAsBE,QAAAA,SAAS,EAAE,SAAjC;AAA6CL,QAAAA,IAAI,EAAC;AAAlD,OArBM,EAsBN;AAACG,QAAAA,QAAQ,EAAE,UAAX;AAAsBE,QAAAA,SAAS,EAAE,SAAjC;AAA4CL,QAAAA,IAAI,EAAC;AAAjD,OAtBM,EAuBN;AAACG,QAAAA,QAAQ,EAAC,UAAV;AAAqBE,QAAAA,SAAS,EAAE,QAAhC;AAA0CL,QAAAA,IAAI,EAAC;AAA/C,OAvBM;AA5BK,KAAb;AAuDH;;AAkECc,EAAAA,MAAM,GAAG;AACP,WACE,oBAAC,GAAD;AACE,MAAA,SAAS,EAAE,eADb;AAEE,MAAA,MAAM,EAAE,KAAKnB,KAAL,CAAWoB,MAFrB;AAGE,MAAA,IAAI,EAAE,EAHR;AAIE,MAAA,KAAK,EAAEC,SAJT;AAKE,MAAA,aAAa,EAAE;AAAEd,QAAAA,GAAG,EAAE,UAAP;AAAmBE,QAAAA,GAAG,EAAE;AAAxB,OALjB;AAAA;AAAA;AAAA;AAAA;AAAA;AAAA,OAMG,KAAKR,qBAAL,EANH,EAOG,KAAKe,oBAAL,EAPH,EAQG,KAAKJ,iBAAL,EARH,CADF;AAcC;;AA5IqC;AAkJ1C,eAAenB,gBAAgB,CAAC;AAC9B6B,EAAAA,MAAM,EAAE;AADsB,CAAD,CAAhB,CAEZzB,IAFY,CAAf;AAKA,MAAMwB,SAAS,GAAG;AAChBE,EAAAA,KAAK,EAAE,MADS;AAEhBC,EAAAA,MAAM,EAAE,MAFQ;AAGhB;AACAC,EAAAA,MAAM,EAAE,IAJQ;AAKhBC,EAAAA,QAAQ,EAAE;AALM,CAAlB;AASA,MAAMb,eAAe,GAAG;AACtBW,EAAAA,MAAM,EAAG,MADa;AAEtBD,EAAAA,KAAK,EAAG,MAFc;AAGtBI,EAAAA,eAAe,EAAE;AAHK,CAAxB","sourcesContent":["import React from 'react';\nimport { Map, GoogleApiWrapper, Marker, InfoWindow } from 'google-maps-react';\nimport  './gmap.scss';\nimport pinMapPath from '../asset/pinMap.png';\nimport police_icon from '../asset/police_icon.svg';\n\n\nexport class Gmap extends React.Component {\n  constructor(props) {\n    super(props);\n    \n    this.state = {\n      \n      stadium: [{lat: 48.8473435, lng: 2.2487285, name: ''},  \n      {latitude: 48.9244592, longitude: 2.3601645, name: 'Stade de France X', id: 1},\n      {latitude: 48.8556475, longitude: 2.2986304, name: 'Champ-de-MarsX', id: 2}, \n      {latitude: 48.8697988, longitude: 2.3056264, name: 'Champs-Elysées X', id: 3}, \n      {latitude: 48.858583,  longitude: 2.2940059, name: 'Tour EiffelX ', id: 4},\n      {latitude: 48.8661126, longitude: 2.3102604, name: 'Grand Palais', id: 5}, \n      {latitude: 48.8558529, longitude: 2.3103745, name: 'Esplanade des Invalides', id: 6}, \n      {latitude: 48.8414391, longitude: 2.2508547, name: 'Parc des Princes', id: 7}, \n      {latitude: 48.8329819, longitude: 2.2848318, name: 'Porte de Versailles', id: 8},\n      {latitude: 48.8433235, longitude: 2.250742,  name: 'Stade Jean Bouin', id: 9}, \n      {latitude: 48.8433305, longitude: 2.2507312, name: 'Roland-Garros', id: 10},\n      {latitude: 48.8385414, longitude: 2.3763955, name: 'Accor Hotels Arena', id: 11}, \n      {latitude: 48.8942081, longitude: 2.3910398, name: 'Zénith', id: 12}, \n      {latitude: 48.9292806, longitude: 2.245583,  name: 'Stade Yves-du-Manoir', id: 13}, \n      {latitude: 48.857275,  longitude: 2.6188995, name: 'Base nautique', id: 14}, \n      {latitude: 48.7880274, longitude: 2.0326554, name: 'Vélodrome national', id: 15}, \n      {latitude: 48.8085377, longitude: 2.1130433, name: 'Château de Versailles' , id: 16}, \n      {latitude: 48.8952826, longitude: 2.2272789, name: 'Arena 92' , id: 17}, \n      {latitude: 48.9106561, longitude: 2.3751778, name: 'Centre aquatique aubervilliers', id: 18 }, \n      {latitude: 48.7505395, longitude: 2.0757523, name: 'Golf National st quentin', id: 19 }, \n      {latitude: 48.9378507, longitude: 2.4199348, name: 'Le Bourget', id: 20 }, \n      {latitude: 48.8914683, longitude: 2.3567057, name: 'Arena 2 la chapelle', id: 21 }, \n      {latitude: 48.7883842, longitude: 1.9329509, name: 'Coline d’Élancourt' , id: 22}, \n      {latitude: 48.8350956, longitude: 2.2535702, name: 'Stade Pierre de Coubertin', id: 23 }, \n      {latitude: 48.9393389, longitude: 2.38176,   name: 'Piscine de Marville', id: 24 },\n    ],\n    police: [\n      {latitude:48.940873, longitude:2.3540861, name: 'SaintDenis Commissariat central'}, \n      {latitude:48.8616971712805, longitude: 2.311607328162924, name:'Invalide Commissariat central'},\n      {latitude:48.86749771375845,longitude:2.311570347812089, name:'Champs Elysée Commissariat central'} , \n      {latitude:48.844289398452176,longitude: 2.381594594866464, name:'Daumesnil Commissariat central' }, \n      {latitude: 48.8923012,longitude:2.2056955, name: 'Nanterre Commissariat central '}, \n      {latitude: 48.8233737,longitude: 2.270274, name:'Issy  Commissariat central'}, \n      {latitude: 48.8352357,longitude: 2.2408951999999998, name:'Boulbi Commissariat central '}, \n      {latitude: 48.9218516, longitude: 2.2586868, name:'Colombes Commissariat '}, \n      {latitude: 48.9281492,longitude: 2.3914016, name:'Le Bourget Commissariat '}, \n      {latitude:48.936181,longitude: 2.357443, name:'SaintDenis Centre Comico'},  \n      {latitude: 48.86889239901695,longitude: 2.343963108027798, name:' Paris 2 comico'}, \n      {latitude: 48.86714560393253,longitude:2.331378562177072, name:'PAris 1 comico'},  \n      {latitude: 48.86714560393253, longitude: 2.331378562177072, name:' Paris 8 comico Opéra'},\n      {latitude:48.8826596,longitude:2.4151066, name:'Les Lilas Comico'},  \n      {latitude: 48.88084426100817, longitude:2.365722535844387, name:'paris Canal de Lourq'}, \n      {latitude: 48.880652,longitude:2.355151, name: 'gare du nord'}, \n      {latitude: 48.854501002282504,longitude: 2.269214859531703, name: 'Passy'},  \n      {latitude: 48.8382677,longitude: 2.2864206, name:'Paris 15 comico'}, \n      {latitude: 48.8015674,longitude: 2.1166273, name:'Versailles Comico'}, \n      {latitude: 48.7854119,longitude: 2.0478015, name:'Guyancourt Comico'}, \n      {latitude: 48.8755393,longitude: 2.3024263 , name:'Paris 8  comico'}, \n      {latitude: 48.8540096,longitude: 2.5783171, name:'Paris EST marne lavallée Comico '},  \n      {latitude:48.9236513,longitude: 2.355672, name:'aubervillier'} ,\n      \n    ] \n  }  \n}\n\ndisplayMarkersStadium = () => {\n  return this.state.stadium.map((stadium) => {\n    return <Marker\n    id={stadium.name}\n    key={stadium.id}\n    position={{ \n      lat: stadium.latitude,\n      lng: stadium.longitude\n    }}\n    \n    icon={{\n      url: pinMapPath, \n    }}\n    \n    //onClick={() => console.log(stadium.id)}\n    >{/* \n       <InfoWindow show={stadium.name}\n        visible={true} \n       position={{ \n      lat: stadium.latitude,\n      lng: stadium.longitude\n    }}>\n          <div>COUCOU</div>\n      </InfoWindow> \n     */}\n    </Marker>\n  })\n}; \n\ndisplayInfoWindow = () =>{\n  return this.state.stadium.map((stadium) => {\n    return <InfoWindow\n    id={stadium.name}\n    key={stadium.id}\n    position={{ \n      lat: stadium.latitude,\n      lng: stadium.longitude\n    }} \n    style= {infoWindowStyle}\n    onClick={() => console.log('test')}\n    >\n   </InfoWindow>\n  });\n}\n\n\ndisplayMarkersPolice = () =>{\n  return this.state.police.map((police) => {\n    return <Marker\n    id={police.name}\n    key={police}\n    position={{ \n      lat: police.latitude,\n      lng: police.longitude\n    }} \n    icon={{\n      url: police_icon, \n    }}\n   onClick={() => console.log(police.name)}\n    >\n    </Marker> \n  })\n}\n\n  render() {\n    return (\n      <Map\n        className= \"gmapContainer\"\n        google={this.props.google}\n        zoom={12}\n        style={mapStyles}\n        initialCenter={{ lat: 48.8583701, lng: 2.2944813}}>\n        {this.displayMarkersStadium()}\n        {this.displayMarkersPolice()} \n        {this.displayInfoWindow()} \n      </Map>\n\n\n      );\n    }\n\n  }\n\n\n\nexport default GoogleApiWrapper({\n  apiKey: 'AIzaSyC9t3-AiZzfZ7zOWgAChLf7-3jQ8PPPTgY'\n})(Gmap);\n\n \nconst mapStyles = {\n  width: '100%',\n  height: '100%',\n  //marginTop: '-60px',\n  zIndex: '-5',\n  overflow: 'hidden',\n  \n};\n\nconst infoWindowStyle = {\n  height : '50px',\n  width : '50px',\n  backgroundColor :'red',\n}"]},"metadata":{},"sourceType":"module"}